{"type":"FeatureCollection", "features": [
{"type":"Feature","geometry":{"type":"Point","coordinates":[-117.17490205,32.82243151]},"properties":{"objectid":42,"name":"Balboa","address":"4255 Mt. Abernathy Avenue","city":"San Diego, CA","zip":"92117","phone":"(858) 573-1390","website":"http://www.sandiego.gov/public-library/","tb":"[1248-H2]"}},
{"type":"Feature","geometry":{"type":"Point","coordinates":[-117.10246226,32.69785404]},"properties":{"objectid":43,"name":"Beckwourth","address":"721 San Pasqual St","city":"San Diego, CA","zip":"92113","phone":"(619) 527-3404","website":"http://www.sandiego.gov/public-library/","tb":"[1289-H5]"}},
{"type":"Feature","geometry":{"type":"Point","coordinates":[-117.08143552,32.79305294]},"properties":{"objectid":44,"name":"Benjamin","address":"5188 Zion Street","city":"San Diego, CA","zip":"92120","phone":"(619) 533-3970","website":"http://www.sandiego.gov/public-library/","tb":"[1250-A6]"}},
{"type":"Feature","geometry":{"type":"Point","coordinates":[-117.07383241,32.98170579]},"properties":{"objectid":45,"name":"Carmel Mountain Ranch","address":"12095 World Trade Dr.","city":"San Diego, CA","zip":"92128","phone":"(858) 538-8181","website":"http://www.sandiego.gov/public-library/","tb":"[1190-A1]"}},
{"type":"Feature","geometry":{"type":"Point","coordinates":[-117.23056268,32.95225916]},"properties":{"objectid":46,"name":"Carmel Valley","address":"3919 Townsgate Drive","city":"San Diego, CA","zip":"92130","phone":"(858) 552-1668","website":"http://www.sandiego.gov/public-library/","tb":"[1188-A5]"}},
{"type":"Feature","geometry":{"type":"Point","coordinates":[-117.19401653,32.7936245]},"properties":{"objectid":47,"name":"Clairemont","address":"2920 Burgener Boulevard","city":"San Diego, CA","zip":"92110","phone":"(858) 581-9935","website":"http://www.sandiego.gov/public-library/","tb":"[1248-F6]"}},
{"type":"Feature","geometry":{"type":"Point","coordinates":[-117.06717427,32.76285647]},"properties":{"objectid":48,"name":"College Heights","address":"4710 College Avenue","city":"San Diego, CA","zip":"92115","phone":"(619) 533-3902","website":"http://www.sandiego.gov/public-library/","tb":"[1270-C3]"}},
{"type":"Feature","geometry":{"type":"Point","coordinates":[-117.10682737,32.76297867]},"properties":{"objectid":49,"name":"Kensington - Normal Heights","address":"4121 Adams Avenue","city":"San Diego, CA","zip":"92116","phone":"(619) 533-3974","website":"http://www.sandiego.gov/public-library/","tb":"[1269-G3]"}},
{"type":"Feature","geometry":{"type":"Point","coordinates":[-117.27605721,32.84067507]},"properties":{"objectid":50,"name":"La Jolla","address":"7555 Draper Ave","city":"La Jolla, CA","zip":"92037","phone":"(858) 552-1657","website":"http://www.sandiego.gov/public-library/","tb":"[1227-E7]"}},
{"type":"Feature","geometry":{"type":"Point","coordinates":[-117.17004436,32.78327413]},"properties":{"objectid":51,"name":"Linda Vista","address":"2160 Ulric Street","city":"San Diego, CA","zip":"92111","phone":"(858) 573-1399","website":"http://www.sandiego.gov/public-library/","tb":"[1268-J1]"}},
{"type":"Feature","geometry":{"type":"Point","coordinates":[-117.13355588,32.70011921]},"properties":{"objectid":52,"name":"Logan Heights","address":"567 South 28th Street","city":"San Diego, CA","zip":"92113","phone":"(619) 533-3968","website":"http://www.sandiego.gov/public-library/","tb":"[1289-E5]"}},
{"type":"Feature","geometry":{"type":"Point","coordinates":[-117.08405502,32.71079663]},"properties":{"objectid":53,"name":"Malcolm X","address":"5148 Market Street","city":"San Diego, CA","zip":"92114","phone":"(619) 527-3405","website":"http://www.sandiego.gov/public-library/","tb":"[1290-A3]"}},
{"type":"Feature","geometry":{"type":"Point","coordinates":[-117.14271356,32.91531573]},"properties":{"objectid":54,"name":"Mira Mesa","address":"8405 New Salem St","city":"San Diego, CA","zip":"92126","phone":"(858) 538-8165","website":"http://www.sandiego.gov/public-library/","tb":"[1209-C3]"}},
{"type":"Feature","geometry":{"type":"Point","coordinates":[-117.17193702,32.74960428]},"properties":{"objectid":55,"name":"Mission Hills","address":"925 West Washington St","city":"San Diego, CA","zip":"92103","phone":"(619) 692-4910","website":"http://www.sandiego.gov/public-library/","tb":"[1268-J5]"}},
{"type":"Feature","geometry":{"type":"Point","coordinates":[-117.20645917,32.82831046]},"properties":{"objectid":56,"name":"North Clairemont","address":"4616 Clairemont Drive","city":"San Diego, CA","zip":"92117","phone":"(858) 581-9931","website":"http://www.sandiego.gov/public-library/","tb":"[1248-E2]"}},
{"type":"Feature","geometry":{"type":"Point","coordinates":[-117.12685649,32.74720118]},"properties":{"objectid":57,"name":"North Park","address":"3795 31st Street","city":"San Diego, CA","zip":"92104","phone":"(619) 533-3972","website":"http://www.sandiego.gov/public-library/","tb":"[1269-E5]"}},
{"type":"Feature","geometry":{"type":"Point","coordinates":[-117.08002762,32.73523438]},"properties":{"objectid":58,"name":"Oak Park","address":"2802 54th Street","city":"San Diego, CA","zip":"92105","phone":"(619) 527-3406","website":"http://www.sandiego.gov/public-library/","tb":"[1270-B7]"}},
{"type":"Feature","geometry":{"type":"Point","coordinates":[-117.24726339,32.74544782]},"properties":{"objectid":59,"name":"Ocean Beach","address":"4801 Santa Monica Avenue","city":"San Diego, CA","zip":"92107","phone":"(619) 531-1532","website":"http://www.sandiego.gov/public-library/","tb":"[1267-J6]"}},
{"type":"Feature","geometry":{"type":"Point","coordinates":[-117.06792959,32.57659814]},"properties":{"objectid":60,"name":"Otay Mesa","address":"3003 Coronado Avenue","city":"San Diego, CA","zip":"92154","phone":"(619) 424-0474","website":"http://www.sandiego.gov/public-library/","tb":"[1350-D1]"}},
{"type":"Feature","geometry":{"type":"Point","coordinates":[-117.06127115,32.67264125]},"properties":{"objectid":61,"name":"Paradise Hills","address":"5922 Rancho Hills Drive","city":"San Diego, CA","zip":"92139","phone":"(619) 527-3461","website":"http://www.sandiego.gov/public-library/","tb":"[1310-D1]"}},
{"type":"Feature","geometry":{"type":"Point","coordinates":[-117.22933321,32.73999341]},"properties":{"objectid":62,"name":"Point Loma","address":"3701 Voltaire Street","city":"San Diego, CA","zip":"92107","phone":"(619) 531-1539","website":"http://www.sandiego.gov/public-library/","tb":"[1268-B7]"}},
{"type":"Feature","geometry":{"type":"Point","coordinates":[-117.07492026,33.02493675]},"properties":{"objectid":63,"name":"Rancho Bernardo","address":"17110 Bernardo Center Drive","city":"San Diego, CA","zip":"92128","phone":"(858) 538-8163","website":"http://www.sandiego.gov/public-library/","tb":"[1170-A2]"}},
{"type":"Feature","geometry":{"type":"Point","coordinates":[-117.12193068,32.95798822]},"properties":{"objectid":64,"name":"Rancho Penasquitos","address":"13330 Salmon River Road","city":"San Diego, CA","zip":"92129","phone":"(858) 538-8159","website":"http://www.sandiego.gov/public-library/","tb":"[1189-E4]"}},
{"type":"Feature","geometry":{"type":"Point","coordinates":[-117.04024743,32.80197145]},"properties":{"objectid":65,"name":"San Carlos","address":"7265 Jackson Dr","city":"San Diego, CA","zip":"92119","phone":"(619) 527-3430","website":"http://www.sandiego.gov/public-library/","tb":"[1250-F5]"}},
{"type":"Feature","geometry":{"type":"Point","coordinates":[-117.04428592,32.55257456]},"properties":{"objectid":66,"name":"San Ysidro","address":"101 West San Ysidro Blvd","city":"San Diego, CA","zip":"92173","phone":"(619) 424-0475","website":"http://www.sandiego.gov/public-library/","tb":"[1350-G4]"}},
{"type":"Feature","geometry":{"type":"Point","coordinates":[-117.10516126,32.91128111]},"properties":{"objectid":67,"name":"Scripps Ranch","address":"10301 Scripps Lake Drive","city":"San Diego, CA","zip":"92131","phone":"(858) 538-8158","website":"http://www.sandiego.gov/public-library/","tb":"[1209-G4]"}},
{"type":"Feature","geometry":{"type":"Point","coordinates":[-117.1338709,32.80936133]},"properties":{"objectid":68,"name":"Serra Mesa","address":"9005 Aero Dr","city":"San Diego, CA","zip":"92123","phone":"(858) 573-1396","website":"http://www.sandiego.gov/public-library/","tb":"[1249-D4]"}},
{"type":"Feature","geometry":{"type":"Point","coordinates":[-117.02658231,32.69781437]},"properties":{"objectid":69,"name":"Skyline Hills","address":"480 South Meadowbrook Drive","city":"San Diego, CA","zip":"92114","phone":"(619) 527-3485","website":"http://www.sandiego.gov/public-library/","tb":"[1290-H5]"}},
{"type":"Feature","geometry":{"type":"Point","coordinates":[-117.25024124,32.79409003]},"properties":{"objectid":70,"name":"Pacific Beach","address":"4275 Cass St.","city":"San Diego, CA","zip":"92109","phone":"(858) 581-9934","website":"http://www.sandiego.gov/public-library/","tb":"[1247-J6]"}},
{"type":"Feature","geometry":{"type":"Point","coordinates":[-117.0980404,32.82083204]},"properties":{"objectid":71,"name":"Tierrasanta","address":"4985 La Cuenta Drive","city":"San Diego, CA","zip":"92124","phone":"(858) 573-1384","website":"http://www.sandiego.gov/public-library/","tb":"[1249-H2]"}},
{"type":"Feature","geometry":{"type":"Point","coordinates":[-117.19913095,32.86764145]},"properties":{"objectid":72,"name":"North University Comm","address":"8820 Judicial Dr","city":"San Diego, CA","zip":"92112","phone":"(858) 581-9637","website":"http://www.sandiego.gov/public-library/","tb":"[1228-E3]"}},
{"type":"Feature","geometry":{"type":"Point","coordinates":[-117.14588518,32.75384311]},"properties":{"objectid":73,"name":"University Heights","address":"4193 Park Boulevard","city":"San Diego, CA","zip":"92103","phone":"(619) 692-4912","website":"http://www.sandiego.gov/public-library/","tb":"[1269-C5]"}},
{"type":"Feature","geometry":{"type":"Point","coordinates":[-117.1003608,32.74738434]},"properties":{"objectid":74,"name":"City Heights","address":"3795 Fairmount Ave.","city":"San Diego, CA","zip":"92105","phone":"(619) 641-6100","website":"http://www.sandiego.gov/public-library/","tb":"[1269-H5]"}},
{"type":"Feature","geometry":{"type":"Point","coordinates":[-117.12698634,32.77930697]},"properties":{"objectid":75,"name":"Mission Valley","address":"2123 Fenton Parkway","city":"San Diego, CA","zip":"92108","phone":"(858) 573-5007","website":"http://www.sandiego.gov/public-library/","tb":"[1269-E1]"}},
{"type":"Feature","geometry":{"type":"Point","coordinates":[-117.05600093,32.76946201]},"properties":{"objectid":79,"name":"College-Rolando","address":"6600 Montezuma Road","city":"San Diego, CA","zip":"92115","phone":"(619) 533-3902","website":"http://www.sandiego.gov/public-library/","tb":"[1270-D2]"}},
{"type":"Feature","geometry":{"type":"Point","coordinates":[-117.20095234,32.85397742]},"properties":{"objectid":80,"name":"University Comm","address":"4155 Governor Drive","city":"San Diego, CA","zip":"92122","phone":"(858) 552-1655","website":"http://www.sandiego.gov/public-library/","tb":"[1228-E5]"}},
{"type":"Feature","geometry":{"type":"Point","coordinates":[-117.15421603,32.7087273]},"properties":{"objectid":81,"name":"San Diego Cental","address":"330 Park Blvd","city":"San Diego, CA","zip":"92101","phone":"(619) 236-5800","website":"http://www.sandiego.gov/public-library/","tb":"[1289-B4]"}}
]}